{
  "type": "FeatureCollection",
  "features": [
    {
      "type": "Feature",
      "properties": {
        "name": "日本 (Japan)",
        "value": 5450
      },
      "geometry": {
        "type": "Point",
        "coordinates": [
          139.2394179,
          36.5748441
        ]
      }
    },
    {
      "type": "Feature",
      "properties": {
        "name": "中国 (China)",
        "value": 275
      },
      "geometry": {
        "type": "Point",
        "coordinates": [
          104.999927,
          35.000074
        ]
      }
    },
    {
      "type": "Feature",
      "properties": {
        "name": "台湾 (Taiwan)",
        "value": 105
      },
      "geometry": {
        "type": "Point",
        "coordinates": [
          120.9820179,
          23.9739374
        ]
      }
    },
    {
      "type": "Feature",
      "properties": {
        "name": "アメリカ合衆国 (United States)",
        "value": 92
      },
      "geometry": {
        "type": "Point",
        "coordinates": [
          -100.445882,
          39.7837304
        ]
      }
    },
    {
      "type": "Feature",
      "properties": {
        "name": "香港 (Hong Kong)",
        "value": 45
      },
      "geometry": {
        "type": "Point",
        "coordinates": [
          114.1628907,
          22.2792968
        ]
      }
    },
    {
      "type": "Feature",
      "properties": {
        "name": "韓国 (South Korea)",
        "value": 37
      },
      "geometry": {
        "type": "Point",
        "coordinates": [
          127.6961188,
          36.638392
        ]
      }
    },
    {
      "type": "Feature",
      "properties": {
        "name": "ベトナム (Vietnam)",
        "value": 33
      },
      "geometry": {
        "type": "Point",
        "coordinates": [
          107.9650855,
          15.9266657
        ]
      }
    },
    {
      "type": "Feature",
      "properties": {
        "name": "インドネシア (Indonesia)",
        "value": 14
      },
      "geometry": {
        "type": "Point",
        "coordinates": [
          117.8902853,
          -2.4833826
        ]
      }
    },
    {
      "type": "Feature",
      "properties": {
        "name": "アルゼンチン (Argentina)",
        "value": 13
      },
      "geometry": {
        "type": "Point",
        "coordinates": [
          -64.9672817,
          -34.9964963
        ]
      }
    },
    {
      "type": "Feature",
      "properties": {
        "name": "マレーシア (Malaysia)",
        "value": 13
      },
      "geometry": {
        "type": "Point",
        "coordinates": [
          102.2656823,
          4.5693754
        ]
      }
    },
    {
      "type": "Feature",
      "properties": {
        "name": "フィリピン (Philippines)",
        "value": 11
      },
      "geometry": {
        "type": "Point",
        "coordinates": [
          122.7312101,
          12.7503486
        ]
      }
    },
    {
      "type": "Feature",
      "properties": {
        "name": "シンガポール (Singapore)",
        "value": 10
      },
      "geometry": {
        "type": "Point",
        "coordinates": [
          103.8194992,
          1.357107
        ]
      }
    },
    {
      "type": "Feature",
      "properties": {
        "name": "カナダ (Canada)",
        "value": 8
      },
      "geometry": {
        "type": "Point",
        "coordinates": [
          -107.991707,
          61.0666922
        ]
      }
    },
    {
      "type": "Feature",
      "properties": {
        "name": "ブラジル (Brazil)",
        "value": 7
      },
      "geometry": {
        "type": "Point",
        "coordinates": [
          -53.2,
          -10.3333333
        ]
      }
    },
    {
      "type": "Feature",
      "properties": {
        "name": "ポーランド (Poland)",
        "value": 5
      },
      "geometry": {
        "type": "Point",
        "coordinates": [
          19.134422,
          52.215933
        ]
      }
    },
    {
      "type": "Feature",
      "properties": {
        "name": "タイ (Thailand)",
        "value": 5
      },
      "geometry": {
        "type": "Point",
        "coordinates": [
          100.83273,
          14.8971921
        ]
      }
    },
    {
      "type": "Feature",
      "properties": {
        "name": "イギリス (United Kingdom)",
        "value": 5
      },
      "geometry": {
        "type": "Point",
        "coordinates": [
          -3.2765753,
          54.7023545
        ]
      }
    },
    {
      "type": "Feature",
      "properties": {
        "name": "オーストラリア (Australia)",
        "value": 4
      },
      "geometry": {
        "type": "Point",
        "coordinates": [
          134.755,
          -24.7761086
        ]
      }
    },
    {
      "type": "Feature",
      "properties": {
        "name": "ドイツ (Germany)",
        "value": 4
      },
      "geometry": {
        "type": "Point",
        "coordinates": [
          10.4478313,
          51.1638175
        ]
      }
    },
    {
      "type": "Feature",
      "properties": {
        "name": "インド (India)",
        "value": 4
      },
      "geometry": {
        "type": "Point",
        "coordinates": [
          78.6677428,
          22.3511148
        ]
      }
    },
    {
      "type": "Feature",
      "properties": {
        "name": "スペイン (Spain)",
        "value": 4
      },
      "geometry": {
        "type": "Point",
        "coordinates": [
          -4.8379791,
          39.3260685
        ]
      }
    },
    {
      "type": "Feature",
      "properties": {
        "name": "フランス (France)",
        "value": 3
      },
      "geometry": {
        "type": "Point",
        "coordinates": [
          1.8883335,
          46.603354
        ]
      }
    },
    {
      "type": "Feature",
      "properties": {
        "name": "パキスタン (Pakistan)",
        "value": 3
      },
      "geometry": {
        "type": "Point",
        "coordinates": [
          71.247499,
          30.3308401
        ]
      }
    },
    {
      "type": "Feature",
      "properties": {
        "name": "エチオピア (Ethiopia)",
        "value": 2
      },
      "geometry": {
        "type": "Point",
        "coordinates": [
          38.6521203,
          10.2116702
        ]
      }
    },
    {
      "type": "Feature",
      "properties": {
        "name": "イラク (Iraq)",
        "value": 2
      },
      "geometry": {
        "type": "Point",
        "coordinates": [
          44.1749775,
          33.0955793
        ]
      }
    },
    {
      "type": "Feature",
      "properties": {
        "name": "Macao (Macao)",
        "value": 2
      },
      "geometry": {
        "type": "Point",
        "coordinates": [
          113.5514142,
          22.1757605
        ]
      }
    },
    {
      "type": "Feature",
      "properties": {
        "name": "メキシコ (Mexico)",
        "value": 2
      },
      "geometry": {
        "type": "Point",
        "coordinates": [
          -102.0077097,
          23.6585116
        ]
      }
    },
    {
      "type": "Feature",
      "properties": {
        "name": "パナマ (Panama)",
        "value": 2
      },
      "geometry": {
        "type": "Point",
        "coordinates": [
          -81.1308434,
          8.559559
        ]
      }
    },
    {
      "type": "Feature",
      "properties": {
        "name": "ルーマニア (Romania)",
        "value": 2
      },
      "geometry": {
        "type": "Point",
        "coordinates": [
          24.6859225,
          45.9852129
        ]
      }
    },
    {
      "type": "Feature",
      "properties": {
        "name": "サウジアラビア (Saudi Arabia)",
        "value": 2
      },
      "geometry": {
        "type": "Point",
        "coordinates": [
          42.3528328,
          25.6242618
        ]
      }
    },
    {
      "type": "Feature",
      "properties": {
        "name": "トルコ (Türkiye)",
        "value": 2
      },
      "geometry": {
        "type": "Point",
        "coordinates": [
          35.2316631,
          39.294076
        ]
      }
    },
    {
      "type": "Feature",
      "properties": {
        "name": "アルジェリア (Algeria)",
        "value": 1
      },
      "geometry": {
        "type": "Point",
        "coordinates": [
          3.0588445,
          36.7729333
        ]
      }
    },
    {
      "type": "Feature",
      "properties": {
        "name": "アルメニア (Armenia)",
        "value": 1
      },
      "geometry": {
        "type": "Point",
        "coordinates": [
          44.6736646,
          40.7696272
        ]
      }
    },
    {
      "type": "Feature",
      "properties": {
        "name": "バングラデシュ (Bangladesh)",
        "value": 1
      },
      "geometry": {
        "type": "Point",
        "coordinates": [
          90.2934413,
          24.4769288
        ]
      }
    },
    {
      "type": "Feature",
      "properties": {
        "name": "ブルガリア (Bulgaria)",
        "value": 1
      },
      "geometry": {
        "type": "Point",
        "coordinates": [
          25.4856617,
          42.6073975
        ]
      }
    },
    {
      "type": "Feature",
      "properties": {
        "name": "カンボジア (Cambodia)",
        "value": 1
      },
      "geometry": {
        "type": "Point",
        "coordinates": [
          104.8144914,
          12.5433216
        ]
      }
    },
    {
      "type": "Feature",
      "properties": {
        "name": "チリ (Chile)",
        "value": 1
      },
      "geometry": {
        "type": "Point",
        "coordinates": [
          -71.3187697,
          -31.7613365
        ]
      }
    },
    {
      "type": "Feature",
      "properties": {
        "name": "エストニア (Estonia)",
        "value": 1
      },
      "geometry": {
        "type": "Point",
        "coordinates": [
          25.3319078,
          58.7523778
        ]
      }
    },
    {
      "type": "Feature",
      "properties": {
        "name": "ギリシャ (Greece)",
        "value": 1
      },
      "geometry": {
        "type": "Point",
        "coordinates": [
          21.9877132,
          38.9953683
        ]
      }
    },
    {
      "type": "Feature",
      "properties": {
        "name": "イタリア (Italy)",
        "value": 1
      },
      "geometry": {
        "type": "Point",
        "coordinates": [
          12.674297,
          42.6384261
        ]
      }
    },
    {
      "type": "Feature",
      "properties": {
        "name": "カザフスタン (Kazakhstan)",
        "value": 1
      },
      "geometry": {
        "type": "Point",
        "coordinates": [
          66.7780818,
          48.1012954
        ]
      }
    },
    {
      "type": "Feature",
      "properties": {
        "name": "ケニア (Kenya)",
        "value": 1
      },
      "geometry": {
        "type": "Point",
        "coordinates": [
          38.4313975,
          1.4419683
        ]
      }
    },
    {
      "type": "Feature",
      "properties": {
        "name": "ネパール (Nepal)",
        "value": 1
      },
      "geometry": {
        "type": "Point",
        "coordinates": [
          83.9999901,
          28.3780464
        ]
      }
    },
    {
      "type": "Feature",
      "properties": {
        "name": "オランダ (Netherlands)",
        "value": 1
      },
      "geometry": {
        "type": "Point",
        "coordinates": [
          5.6343227,
          52.2434979
        ]
      }
    },
    {
      "type": "Feature",
      "properties": {
        "name": "ポルトガル (Portugal)",
        "value": 1
      },
      "geometry": {
        "type": "Point",
        "coordinates": [
          -8.1353519,
          39.6621648
        ]
      }
    },
    {
      "type": "Feature",
      "properties": {
        "name": "ロシア (Russia)",
        "value": 1
      },
      "geometry": {
        "type": "Point",
        "coordinates": [
          97.7453061,
          64.6863136
        ]
      }
    },
    {
      "type": "Feature",
      "properties": {
        "name": "スイス (Switzerland)",
        "value": 1
      },
      "geometry": {
        "type": "Point",
        "coordinates": [
          8.2319736,
          46.7985624
        ]
      }
    },
    {
      "type": "Feature",
      "properties": {
        "name": " United Republic of (Tanzania)",
        "value": 1
      },
      "geometry": {
        "type": "Point",
        "coordinates": [
          35.7878438,
          -6.5247123
        ]
      }
    },
    {
      "type": "Feature",
      "properties": {
        "name": "ウクライナ (Ukraine)",
        "value": 1
      },
      "geometry": {
        "type": "Point",
        "coordinates": [
          31.2718321,
          49.4871968
        ]
      }
    },
    {
      "type": "Feature",
      "properties": {
        "name": " Bolivarian Republic of (Venezuela)",
        "value": 1
      },
      "geometry": {
        "type": "Point",
        "coordinates": [
          -66.1109318,
          8.0018709
        ]
      }
    }
  ]
}